[
  {
    "id": "mc-dallas-1",
    "name": "Pilot Travel Center — Dallas (I-45)",
    "lat": 32.58,
    "lng": -96.72,
    "corridor": "I-45",
    "type": "megacharger",
    "status": "planned",
    "operator": "Tesla/Pilot",
    "power_kw": 1200,
    "stall_count": null
  },
  {
    "id": "mc-corsicana",
    "name": "Pilot Travel Center — Corsicana (I-45)",
    "lat": 32.09,
    "lng": -96.47,
    "corridor": "I-45",
    "type": "megacharger",
    "status": "planned",
    "operator": "Tesla/Pilot",
    "power_kw": 1200,
    "stall_count": null
  },
  {
    "id": "mc-centerville",
    "name": "Pilot Travel Center — Centerville (I-45)",
    "lat": 31.26,
    "lng": -95.98,
    "corridor": "I-45",
    "type": "megacharger",
    "status": "planned",
    "operator": "Tesla/Pilot",
    "power_kw": 1200,
    "stall_count": null
  },
  {
    "id": "mc-huntsville",
    "name": "Pilot Travel Center — Huntsville (I-45)",
    "lat": 30.72,
    "lng": -95.55,
    "corridor": "I-45",
    "type": "megacharger",
    "status": "planned",
    "operator": "Tesla/Pilot",
    "power_kw": 1200,
    "stall_count": null
  },
  {
    "id": "mc-houston-1",
    "name": "Pilot Travel Center — Houston North (I-45)",
    "lat": 30.05,
    "lng": -95.42,
    "corridor": "I-45",
    "type": "megacharger",
    "status": "planned",
    "operator": "Tesla/Pilot",
    "power_kw": 1200,
    "stall_count": null
  },
  {
    "id": "mc-hillsboro",
    "name": "Pilot Travel Center — Hillsboro (I-35)",
    "lat": 32.01,
    "lng": -97.13,
    "corridor": "I-35",
    "type": "megacharger",
    "status": "planned",
    "operator": "Tesla/Pilot",
    "power_kw": 1200,
    "stall_count": null
  },
  {
    "id": "mc-waco",
    "name": "Pilot Travel Center — Waco (I-35)",
    "lat": 31.55,
    "lng": -97.15,
    "corridor": "I-35",
    "type": "megacharger",
    "status": "planned",
    "operator": "Tesla/Pilot",
    "power_kw": 1200,
    "stall_count": null
  },
  {
    "id": "mc-temple",
    "name": "Pilot Travel Center — Temple (I-35)",
    "lat": 31.10,
    "lng": -97.34,
    "corridor": "I-35",
    "type": "megacharger",
    "status": "planned",
    "operator": "Tesla/Pilot",
    "power_kw": 1200,
    "stall_count": null
  },
  {
    "id": "mc-austin",
    "name": "Pilot Travel Center — Austin (I-35)",
    "lat": 30.35,
    "lng": -97.70,
    "corridor": "I-35",
    "type": "megacharger",
    "status": "planned",
    "operator": "Tesla/Pilot",
    "power_kw": 1200,
    "stall_count": null
  },
  {
    "id": "mc-sanmarcos",
    "name": "Pilot Travel Center — San Marcos (I-35)",
    "lat": 29.88,
    "lng": -97.94,
    "corridor": "I-35",
    "type": "megacharger",
    "status": "planned",
    "operator": "Tesla/Pilot",
    "power_kw": 1200,
    "stall_count": null
  },
  {
    "id": "mc-sanantonio-1",
    "name": "Pilot Travel Center — San Antonio (I-35)",
    "lat": 29.50,
    "lng": -98.43,
    "corridor": "I-35",
    "type": "megacharger",
    "status": "planned",
    "operator": "Tesla/Pilot",
    "power_kw": 1200,
    "stall_count": null
  },
  {
    "id": "mc-laredo",
    "name": "Pilot Travel Center — Laredo (I-35)",
    "lat": 27.58,
    "lng": -99.48,
    "corridor": "I-35",
    "type": "megacharger",
    "status": "planned",
    "operator": "Tesla/Pilot",
    "power_kw": 1200,
    "stall_count": null
  },
  {
    "id": "mc-seguin",
    "name": "Pilot Travel Center — Seguin (I-10)",
    "lat": 29.57,
    "lng": -97.96,
    "corridor": "I-10",
    "type": "megacharger",
    "status": "planned",
    "operator": "Tesla/Pilot",
    "power_kw": 1200,
    "stall_count": null
  },
  {
    "id": "mc-houston-i10",
    "name": "Pilot Travel Center — Houston West (I-10)",
    "lat": 29.78,
    "lng": -95.80,
    "corridor": "I-10",
    "type": "megacharger",
    "status": "planned",
    "operator": "Tesla/Pilot",
    "power_kw": 1200,
    "stall_count": null
  },
  {
    "id": "mc-weatherford",
    "name": "Pilot Travel Center — Weatherford (I-20)",
    "lat": 32.76,
    "lng": -97.80,
    "corridor": "I-20",
    "type": "megacharger",
    "status": "planned",
    "operator": "Tesla/Pilot",
    "power_kw": 1200,
    "stall_count": null
  },
  {
    "id": "mc-abilene",
    "name": "Pilot Travel Center — Abilene (I-20)",
    "lat": 32.45,
    "lng": -99.75,
    "corridor": "I-20",
    "type": "megacharger",
    "status": "planned",
    "operator": "Tesla/Pilot",
    "power_kw": 1200,
    "stall_count": null
  },
  {
    "id": "mc-midland",
    "name": "Pilot Travel Center — Midland (I-20)",
    "lat": 31.99,
    "lng": -102.08,
    "corridor": "I-20",
    "type": "megacharger",
    "status": "planned",
    "operator": "Tesla/Pilot",
    "power_kw": 1200,
    "stall_count": null
  },
  {
    "id": "mc-vandorn",
    "name": "Pilot Travel Center — Van Horn (I-10)",
    "lat": 31.04,
    "lng": -104.83,
    "corridor": "I-10",
    "type": "megacharger",
    "status": "planned",
    "operator": "Tesla/Pilot",
    "power_kw": 1200,
    "stall_count": null
  },
  {
    "id": "mc-elpaso",
    "name": "Pilot Travel Center — El Paso (I-10)",
    "lat": 31.80,
    "lng": -106.40,
    "corridor": "I-10",
    "type": "megacharger",
    "status": "planned",
    "operator": "Tesla/Pilot",
    "power_kw": 1200,
    "stall_count": null
  }
]
