[
  {
    "id": "cs-giga-texas",
    "name": "Giga Texas Megacharger",
    "lat": 30.22,
    "lng": -97.62,
    "corridor": "I-35",
    "type": "megacharger",
    "status": "active",
    "operator": "Tesla",
    "power_kw": 1200,
    "stall_count": 8
  },
  {
    "id": "cs-corsicana",
    "name": "Pilot - Corsicana",
    "lat": 32.09,
    "lng": -96.47,
    "corridor": "I-45",
    "type": "megacharger",
    "status": "planned",
    "operator": "Tesla/Pilot",
    "power_kw": 1200,
    "stall_count": null
  },
  {
    "id": "cs-madisonville",
    "name": "Pilot - Madisonville",
    "lat": 30.95,
    "lng": -95.91,
    "corridor": "I-45",
    "type": "megacharger",
    "status": "planned",
    "operator": "Tesla/Pilot",
    "power_kw": 1200,
    "stall_count": null
  },
  {
    "id": "cs-huntsville",
    "name": "Pilot - Huntsville",
    "lat": 30.72,
    "lng": -95.55,
    "corridor": "I-45",
    "type": "megacharger",
    "status": "planned",
    "operator": "Tesla/Pilot",
    "power_kw": 1200,
    "stall_count": null
  },
  {
    "id": "cs-hillsboro",
    "name": "Pilot - Hillsboro",
    "lat": 32.01,
    "lng": -97.13,
    "corridor": "I-35",
    "type": "megacharger",
    "status": "planned",
    "operator": "Tesla/Pilot",
    "power_kw": 1200,
    "stall_count": null
  },
  {
    "id": "cs-waco",
    "name": "Pilot - Waco",
    "lat": 31.55,
    "lng": -97.15,
    "corridor": "I-35",
    "type": "megacharger",
    "status": "planned",
    "operator": "Tesla/Pilot",
    "power_kw": 1200,
    "stall_count": null
  },
  {
    "id": "cs-temple",
    "name": "Pilot - Temple/Belton",
    "lat": 31.05,
    "lng": -97.34,
    "corridor": "I-35",
    "type": "megacharger",
    "status": "planned",
    "operator": "Tesla/Pilot",
    "power_kw": 1200,
    "stall_count": null
  },
  {
    "id": "cs-san-marcos",
    "name": "Pilot - San Marcos",
    "lat": 29.88,
    "lng": -97.94,
    "corridor": "I-35",
    "type": "megacharger",
    "status": "planned",
    "operator": "Tesla/Pilot",
    "power_kw": 1200,
    "stall_count": null
  },
  {
    "id": "cs-new-braunfels",
    "name": "Pilot - New Braunfels",
    "lat": 29.70,
    "lng": -98.12,
    "corridor": "I-35",
    "type": "megacharger",
    "status": "planned",
    "operator": "Tesla/Pilot",
    "power_kw": 1200,
    "stall_count": null
  },
  {
    "id": "cs-seguin",
    "name": "Pilot - Seguin/Luling",
    "lat": 29.57,
    "lng": -97.65,
    "corridor": "I-10",
    "type": "megacharger",
    "status": "planned",
    "operator": "Tesla/Pilot",
    "power_kw": 1200,
    "stall_count": null
  },
  {
    "id": "cs-kerrville",
    "name": "Pilot - Kerrville area",
    "lat": 30.05,
    "lng": -99.14,
    "corridor": "I-10",
    "type": "megacharger",
    "status": "planned",
    "operator": "Tesla/Pilot",
    "power_kw": 1200,
    "stall_count": null
  },
  {
    "id": "cs-junction",
    "name": "Pilot - Junction",
    "lat": 30.49,
    "lng": -99.77,
    "corridor": "I-10",
    "type": "megacharger",
    "status": "planned",
    "operator": "Tesla/Pilot",
    "power_kw": 1200,
    "stall_count": null
  },
  {
    "id": "cs-houston-katy",
    "name": "Pilot - Houston (Katy)",
    "lat": 29.78,
    "lng": -95.82,
    "corridor": "I-10",
    "type": "megacharger",
    "status": "planned",
    "operator": "Tesla/Pilot",
    "power_kw": 1200,
    "stall_count": null
  },
  {
    "id": "cs-weatherford",
    "name": "Pilot - Weatherford/Abilene",
    "lat": 32.45,
    "lng": -98.80,
    "corridor": "I-20",
    "type": "megacharger",
    "status": "planned",
    "operator": "Tesla/Pilot",
    "power_kw": 1200,
    "stall_count": null
  },
  {
    "id": "cs-sweetwater",
    "name": "Pilot - Sweetwater",
    "lat": 32.47,
    "lng": -100.41,
    "corridor": "I-20",
    "type": "megacharger",
    "status": "planned",
    "operator": "Tesla/Pilot",
    "power_kw": 1200,
    "stall_count": null
  },
  {
    "id": "cs-big-spring",
    "name": "Pilot - Big Spring",
    "lat": 32.25,
    "lng": -101.48,
    "corridor": "I-20",
    "type": "megacharger",
    "status": "planned",
    "operator": "Tesla/Pilot",
    "power_kw": 1200,
    "stall_count": null
  },
  {
    "id": "cs-midland-odessa",
    "name": "Pilot - Midland/Odessa",
    "lat": 31.99,
    "lng": -102.08,
    "corridor": "I-20",
    "type": "megacharger",
    "status": "planned",
    "operator": "Tesla/Pilot",
    "power_kw": 1200,
    "stall_count": null
  },
  {
    "id": "cs-pecos",
    "name": "Pilot - Pecos",
    "lat": 31.42,
    "lng": -103.49,
    "corridor": "I-20/I-10",
    "type": "megacharger",
    "status": "planned",
    "operator": "Tesla/Pilot",
    "power_kw": 1200,
    "stall_count": null
  },
  {
    "id": "cs-fort-stockton",
    "name": "Pilot - Fort Stockton",
    "lat": 30.89,
    "lng": -102.88,
    "corridor": "I-10/I-20",
    "type": "megacharger",
    "status": "planned",
    "operator": "Tesla/Pilot",
    "power_kw": 1200,
    "stall_count": null
  }
]
